,City,Lat,Lng,Max Temp,Humidity,Cloudiness,Wind Speed,Country,Date
0,Pathein,16.7833,94.7333,74.39,82,6,5.86,MM,1702258167
1,Ilulissat,69.2167,-51.1,28.42,74,100,12.66,GL,1702258167
2,Port-aux-Français,-49.35,70.2167,39.22,79,74,21.18,TF,1702258167
3,Naryan-Mar,67.6713,53.087,-8.9,91,100,11.01,RU,1702258095
4,Longyearbyen,78.2186,15.6401,31.84,74,75,12.66,SJ,1702258055
5,Blackmans Bay,-43.0167,147.3167,71.53,53,8,1.99,AU,1702258168
6,Adamstown,-25.066,-130.1015,70.32,57,0,7.14,PN,1702258054
7,Cabo San Lucas,22.8909,-109.9124,80.76,52,0,4.61,MX,1702257890
8,Moose Jaw,50.4001,-105.5344,23.25,86,19,9.22,CA,1702258095
9,Barreirinhas,-2.7469,-42.8264,79.2,84,99,11.81,BR,1702258169
10,Atafu Village,-8.5421,-172.5159,83.8,76,100,13.53,TK,1702258169
11,Hawaiian Paradise Park,19.5933,-154.9731,78.03,93,100,3.44,US,1702257886
12,Waitangi,-43.9535,-176.5597,52.95,59,0,5.01,NZ,1702258169
13,Bilibino,68.0546,166.4372,-14.58,98,34,4.79,RU,1702258170
14,Flying Fish Cove,-10.4217,105.6791,82.08,74,40,10.36,CX,1702258170
15,Port Lincoln,-34.7333,135.8667,63.07,93,100,15.48,AU,1702258170
16,Thunder Bay,48.4001,-89.3168,24.78,68,100,11.5,CA,1702257818
17,El Abiodh Sidi Cheikh,32.893,0.5484,51.71,57,0,2.8,DZ,1702258171
18,Port Elizabeth,-33.918,25.5701,59.09,92,0,4.61,ZA,1702258171
19,Weno,7.4515,151.8468,87.75,70,75,8.05,FM,1702258171
20,West Island,-12.1568,96.8225,80.58,74,75,10.36,CC,1702258171
21,Reinosa,42.9996,-4.138,46.45,91,100,11.97,ES,1702258172
22,College,64.8569,-147.8028,-9.54,75,75,0.0,US,1702258172
23,Afaahiti,-17.75,-149.2833,85.87,82,76,24.85,PF,1702258172
24,Puerto Natales,-51.7236,-72.4875,43.52,87,63,4.61,CL,1702258172
25,Iqaluit,63.7506,-68.5145,24.53,79,100,12.66,CA,1702258172
26,Grytviken,-54.2811,-36.5092,42.12,93,100,15.05,GS,1702258030
27,Queensbury,53.7667,-1.9167,47.17,95,100,13.85,GB,1702258173
28,Lázaro Cárdenas,17.9583,-102.2,79.61,70,100,0.83,MX,1702258173
29,Avarua,-21.2078,-159.775,80.65,78,75,28.77,CK,1702258173
30,Kharan,28.5833,65.4167,53.22,26,0,3.11,PK,1702258174
31,Bethel,41.3712,-73.414,61.21,89,100,1.99,US,1702258174
32,Albany,42.6001,-73.9662,46.17,91,100,5.01,US,1702257582
33,Punta Arenas,-53.15,-70.9167,46.51,61,0,3.44,CL,1702258122
34,Puerto Ayora,-0.7393,-90.3518,75.45,87,35,7.38,EC,1702257885
35,Solwezi,-12.1688,26.3894,63.45,86,90,3.91,ZM,1702258175
36,Gadzhiyevo,69.2551,33.3362,6.98,91,88,15.79,RU,1702258175
37,Stanley,54.868,-1.6985,42.28,96,75,5.75,GB,1702258017
38,Ndélé,8.4109,20.6473,74.37,25,100,2.28,CF,1702258175
39,Nagqu Prefecture,31.5,92.0,6.67,47,0,3.98,CN,1702258175
40,Carnarvon,-24.8667,113.6333,85.23,24,0,20.29,AU,1702258176
41,Zhicheng,30.2956,111.5047,40.46,73,100,11.79,CN,1702258176
42,Carutapera,-1.195,-46.02,79.81,79,69,8.05,BR,1702258176
43,Anadyr,64.75,177.4833,-16.01,82,20,11.18,RU,1702258176
44,Nampula,-15.1165,39.2666,75.15,88,75,10.36,MZ,1702258176
45,Lakhipur,26.0299,90.3041,59.04,61,0,4.03,IN,1702258177
46,Bredasdorp,-34.5322,20.0403,59.25,82,0,2.77,ZA,1702257892
47,Barcelos,41.5388,-8.6151,62.74,94,100,8.79,PT,1702258177
48,Boa Vista,2.8197,-60.6733,84.18,61,0,8.05,BR,1702258177
49,Rosarito,32.3333,-117.0333,65.91,41,41,5.91,MX,1702258177
50,Cabedelo,-6.9811,-34.8339,79.47,66,99,8.32,BR,1702257987
51,Brigantine,39.4101,-74.3646,61.2,96,100,17.27,US,1702258178
52,Eureka,40.8021,-124.1637,56.25,84,35,1.01,US,1702258178
53,Tutóia,-2.7619,-42.2744,80.46,83,100,15.19,BR,1702258178
54,Edinburgh of the Seven Seas,-37.0676,-12.3116,56.62,70,97,16.6,SH,1702258178
55,Margaret River,-33.95,115.0667,72.16,31,0,8.05,AU,1702258102
56,North Bend,43.4065,-124.2243,56.16,100,100,6.91,US,1702258179
57,Tiksi,71.6872,128.8694,-14.13,100,100,4.83,RU,1702258179
58,Chonchi,-42.6128,-73.8092,54.61,92,100,2.62,CL,1702258179
59,Papatowai,-46.5619,169.4708,63.43,43,83,13.94,NZ,1702258179
60,Gewanē,10.1664,40.6453,71.53,47,3,3.62,ET,1702258180
61,Saipan,15.1355,145.701,86.7,74,0,12.66,MP,1702258180
62,Kitwe,-12.7961,28.2477,69.62,82,100,3.89,ZM,1702258180
63,Whitehorse,60.7161,-135.0538,9.37,83,100,4.61,CA,1702258181
64,Thompson,55.7435,-97.8558,5.16,85,100,3.44,CA,1702258181
65,Ust-Nera,64.5667,143.2,-5.37,98,100,8.77,RU,1702258181
66,Amahai,-3.3333,128.9167,84.06,72,95,3.89,ID,1702258181
67,Saint-Philippe,-21.3585,55.7679,74.79,85,50,11.61,RE,1702258181
68,Nova Sintra,14.8667,-24.7167,73.35,74,100,8.52,CV,1702258181
69,Opuwo,-18.0607,13.84,69.69,39,34,4.03,NA,1702258182
70,Porto Cristo,39.5395,3.333,58.64,87,17,7.78,ES,1702258182
71,Kirakira,-10.4544,161.9205,81.79,82,92,1.39,SB,1702258182
72,Callao,-12.0667,-77.15,71.73,77,75,14.97,PE,1702257997
73,Hammerfest,70.6634,23.6821,25.25,74,20,9.22,NO,1702258182
74,Thurso,58.5927,-3.5259,43.05,81,100,18.59,GB,1702258183
75,Olonkinbyen,70.9221,-8.7187,25.23,61,100,8.72,SJ,1702258183
76,Kerben,40.2951,72.1863,28.9,58,100,1.63,KG,1702258183
77,Lihue,21.9789,-159.3672,80.19,77,20,9.22,US,1702257883
78,Yellowknife,62.456,-114.3525,10.92,92,100,18.41,CA,1702258150
79,Vila Franca do Campo,37.7167,-25.4333,64.89,99,100,10.4,PT,1702257911
80,Hermanus,-34.4187,19.2345,60.76,81,0,8.99,ZA,1702258183
81,Yenişarbademli,37.7078,31.3864,42.82,89,100,4.27,TR,1702257983
82,Isafjordur,66.0755,-23.124,26.01,94,95,6.42,IS,1702258076
83,Umm Kaddadah,13.6017,26.6876,71.6,15,100,5.61,SD,1702258184
84,Myingyan,21.4667,95.3833,69.26,85,4,5.48,MM,1702258184
85,Kongsvinger,60.1905,11.9977,28.47,96,100,5.82,NO,1702258184
86,Tamanghasset,22.785,5.5228,55.31,28,0,10.36,DZ,1702258184
87,Kovalam,8.3667,76.9967,82.49,83,40,0.0,IN,1702258185
88,Suva,-18.1416,178.4415,81.88,57,40,12.66,FJ,1702258185
89,Caleta de Carquín,-11.0925,-77.6267,68.92,83,100,9.6,PE,1702258185
90,Porto Franco,-6.3383,-47.3992,74.64,93,98,2.95,BR,1702258185
91,Masterton,-40.9597,175.6575,62.89,39,0,6.96,NZ,1702257926
92,Peace River,56.2501,-117.286,30.51,64,75,5.75,CA,1702257831
93,Uyar,55.81,94.3153,-31.95,100,77,1.99,RU,1702258186
94,Constanța,44.1833,28.65,32.7,85,93,9.44,RO,1702258186
95,Bubaque,11.2833,-15.8333,82.69,63,99,10.49,GW,1702258186
96,Tyumen,57.1522,65.5272,-34.51,74,0,6.71,RU,1702258186
97,Puerto Aisén,-45.4,-72.7,53.38,99,100,4.43,CL,1702258158
98,Mount Isa,-20.7333,139.5,83.97,39,5,13.8,AU,1702258187
99,Sīwah,29.2041,25.5195,59.68,49,29,7.92,EG,1702258087
100,La Ronge,55.1001,-105.2842,25.05,74,100,5.75,CA,1702258187
101,Ribeira Grande,38.5167,-28.7,63.77,72,100,17.0,PT,1702258029
102,Juli,-16.2167,-69.45,47.73,81,97,7.99,PE,1702258188
103,Rundu,-17.9333,19.7667,75.0,34,98,6.29,NA,1702258188
104,Castillos,-34.1667,-53.8333,60.21,96,5,5.17,UY,1702258188
105,San Patricio,28.017,-97.5169,55.83,27,0,4.83,US,1702258188
106,Ushuaia,-54.8,-68.3,46.06,53,0,11.5,AR,1702258188
107,Hithadhoo,-0.6,73.0833,82.04,76,99,4.29,MV,1702258189
108,Novodvinsk,64.4165,40.8122,2.95,91,100,10.65,RU,1702258189
109,El Granada,37.5027,-122.4694,56.79,71,0,1.01,US,1702258189
110,Great Falls,47.5002,-111.3008,41.68,63,0,18.41,US,1702258043
111,Qandala,11.472,49.8728,75.51,72,0,4.72,SO,1702258189
112,Mahina,-17.5065,-149.489,87.57,66,40,6.91,PF,1702258189
113,Gedaref,14.0349,35.3834,76.73,28,13,8.08,SD,1702258190
114,Rio Grande,-32.035,-52.0986,67.95,88,97,18.21,BR,1702257955
115,Portland,45.5234,-122.6762,54.28,95,100,7.0,US,1702258051
116,Obo,5.3998,26.4869,70.88,69,86,2.95,CF,1702258190
117,Emerald,-23.5333,148.1667,73.8,66,100,16.04,AU,1702258190
118,Urangan,-25.3,152.9,78.21,73,100,5.99,AU,1702258190
119,Porto Belo,-27.1578,-48.5531,69.96,100,100,6.24,BR,1702258190
120,Sumbawanga,-7.9667,31.6167,59.34,95,100,1.54,TZ,1702258191
121,Invercargill,-46.4,168.35,61.34,46,39,15.03,NZ,1702258191
122,Labrador City,52.9463,-66.9114,31.91,93,100,11.5,CA,1702258191
123,São Gabriel da Cachoeira,-0.1303,-67.0892,74.77,96,96,0.87,BR,1702258191
124,Udachny,66.4167,112.4,-14.93,95,100,11.97,RU,1702258191
125,Tungipāra,22.9,89.9167,60.03,63,0,3.74,BD,1702258191
126,Vorkuta,67.5,64.0,-12.89,100,100,7.87,RU,1702258192
127,Longboat Key,27.4125,-82.659,68.0,67,20,10.36,US,1702257829
128,Vorgashor,67.5833,63.95,-12.91,100,100,7.94,RU,1702258192
129,Port Augusta,-32.5,137.7667,69.57,64,100,14.99,AU,1702258192
130,Port Mathurin,-19.6833,63.4167,78.91,76,100,8.25,MU,1702258192
131,Camaná,-16.6228,-72.7111,68.47,81,100,6.2,PE,1702257934
132,Laojunmiao,39.8333,97.7333,24.89,54,74,5.12,CN,1702258193
133,Klaksvík,62.2266,-6.589,43.72,84,99,17.16,FO,1702258193
134,Fale old settlement,-9.3852,-171.2468,83.61,78,95,14.12,TK,1702258193
135,Enewetak,11.3474,162.3373,81.9,76,100,18.32,MH,1702258092
136,Saldanha,-33.0117,17.9442,57.25,88,0,14.07,ZA,1702258160
137,Calama,-22.4667,-68.9333,64.89,14,0,14.97,CL,1702258193
138,Port Alfred,-33.5906,26.891,62.19,94,45,3.24,ZA,1702258018
139,Sitka,57.0531,-135.33,37.29,81,75,5.75,US,1702258149
140,Hamilton,39.1834,-84.5333,34.77,80,100,11.5,US,1702258194
141,Saint Paul Harbor,57.79,-152.4072,42.31,87,100,13.8,US,1702257951
142,Angoche,-16.2325,39.9086,79.86,84,99,9.19,MZ,1702258194
143,Tazacorte,28.629,-17.9293,71.15,40,0,8.99,ES,1702258194
144,Chehalis,46.662,-122.964,52.54,98,100,4.61,US,1702258088
145,Kulhudhuffushi,6.6221,73.07,82.69,78,100,10.27,MV,1702258194
146,Kolpashevo,58.3131,82.9089,-24.9,99,6,5.01,RU,1702258195
147,Xicoténcatl,23.0167,-98.8833,60.55,36,89,3.27,MX,1702258195
148,Ola,59.5833,151.2833,28.15,81,100,19.98,RU,1702257971
149,Port Shepstone,-30.7414,30.455,66.67,83,100,6.44,ZA,1702258195
150,Iskateley,67.6803,53.1512,-8.99,91,100,11.01,RU,1702258195
151,Priargunsk,50.3691,119.1012,-42.18,100,63,0.74,RU,1702258195
152,Utrik,11.2278,169.8474,80.89,77,100,19.66,MH,1702258195
153,Kristinestad,62.2743,21.376,13.73,98,92,5.91,FI,1702258196
154,Poso,-1.3959,120.7524,84.61,68,100,1.74,ID,1702258196
155,Bo`ka,40.8108,69.1986,37.89,60,100,2.73,UZ,1702258196
156,Vernon,50.2581,-119.2691,40.3,90,100,3.44,CA,1702258196
157,Sault Ste. Marie,46.5168,-84.3333,28.69,80,75,9.22,CA,1702257995
158,Lā‘ie,21.6477,-157.9253,85.05,76,20,4.0,US,1702258196
159,Guerrero Negro,27.9769,-114.0611,67.96,39,0,7.96,MX,1702258196
160,Badger,64.8,-147.5333,-9.63,74,0,0.0,US,1702258197
161,Wailua Homesteads,22.0669,-159.378,79.59,79,20,9.22,US,1702258136
162,Malango,-2.9627,119.9001,78.08,71,100,1.88,ID,1702258197
163,Fort St. John,56.2499,-120.8529,22.89,74,20,5.75,CA,1702257926
164,Suomussalmi,64.8869,28.9078,7.61,96,98,5.84,FI,1702258197
165,Whakatane,-37.9585,176.9854,66.78,73,100,4.72,NZ,1702258197
166,Marabu,4.4148,114.0089,80.74,89,40,2.3,MY,1702258198
167,Kangding,30.0513,101.9603,40.82,80,87,3.67,CN,1702258198
168,Tazovsky,67.4667,78.7,-13.13,97,100,10.49,RU,1702258198
169,Tôlanaro,-25.0319,46.9987,77.07,94,20,16.11,MG,1702258198
170,Northam,51.0333,-4.2167,53.65,86,56,26.06,GB,1702258198
171,Tralee,52.2704,-9.7026,48.52,88,25,12.48,IE,1702258198
172,Mount Airy,36.4993,-80.6073,45.88,80,100,19.57,US,1702258131
173,Rota,36.6224,-6.3586,55.53,88,0,6.91,ES,1702258199
174,Castelli,-25.9468,-60.6195,70.27,69,0,4.63,AR,1702258199
175,Sabang,5.8933,95.3214,81.21,76,87,4.92,ID,1702257957
176,Kapuskasing,49.4169,-82.4331,21.29,86,100,10.36,CA,1702258199
177,Porto-Novo,6.4965,2.6036,82.22,83,0,4.16,BJ,1702258199
178,Kogalym,62.2654,74.4791,-36.2,100,17,4.5,RU,1702258199
179,Dhidhdhoo,6.8833,73.1,82.6,78,100,10.47,MV,1702258156
180,Salahonda,2.1019,-78.7217,80.4,82,100,9.13,CO,1702258200
181,Kapaa,22.0752,-159.319,80.92,77,20,9.22,US,1702258200
182,Trairi,-3.2778,-39.2689,79.99,70,92,10.49,BR,1702258155
183,Klyuchi,52.2667,79.1667,-7.11,89,17,6.13,RU,1702258200
184,Haiku-Pauwela,20.9219,-156.3051,86.02,59,40,13.8,US,1702258200
185,Kīevka,50.2619,71.5514,-10.21,91,17,9.51,KZ,1702258201
186,Mejit,10.2753,170.8646,80.91,77,100,19.04,MH,1702258201
187,Vilyuchinsk,52.9306,158.4028,35.87,92,100,11.39,RU,1702258201
188,Manokwari,-0.8667,134.0833,82.51,73,100,5.17,ID,1702258015
189,Touros,-5.1989,-35.4608,79.3,69,51,9.15,BR,1702258202
190,Keflavik,64.0049,-22.5624,36.03,93,100,9.22,IS,1702258203
191,Vrontados,38.4089,26.1328,55.58,75,62,4.54,GR,1702258205
192,Lesnoy,57.6198,63.0784,-29.67,99,17,4.18,RU,1702258205
193,Grand Gaube,-20.0064,57.6608,77.4,87,100,14.9,MU,1702258206
194,Prado,-17.3411,-39.2208,74.73,87,0,1.52,BR,1702258068
195,Kumul,42.8,93.45,29.12,61,100,3.8,CN,1702258206
196,Uturoa,-16.7333,-151.4333,80.62,80,23,22.77,PF,1702258207
197,Acapulco de Juárez,16.8634,-99.8901,82.22,83,75,3.44,MX,1702258125
198,Buala,-8.145,159.5921,85.32,67,60,2.24,SB,1702258207
199,Al Hazm,16.1641,44.7769,56.59,36,7,3.15,YE,1702258208
200,Alta,69.9689,23.2717,15.06,73,100,10.36,NO,1702258208
201,Inírida,3.8653,-67.9239,75.96,87,94,2.28,CO,1702258208
202,Margate,51.3813,1.3862,52.9,75,59,18.01,GB,1702257901
203,Mount Gambier,-37.8333,140.7667,61.99,90,100,13.24,AU,1702258209
204,Tangalle,6.024,80.7911,75.36,90,100,3.0,LK,1702258209
205,Panabá,21.2833,-88.2667,72.63,85,100,11.34,MX,1702258209
206,Kelo,9.3086,15.8066,68.02,23,16,6.35,TD,1702258210
207,Talnakh,69.4865,88.3972,-16.8,98,100,10.11,RU,1702258203
208,Kununurra,-15.7667,128.7333,85.98,45,33,12.66,AU,1702258210
209,Tarija,-21.5355,-64.7296,62.51,88,75,3.44,BO,1702258210
210,Loikaw,19.6742,97.2094,69.3,82,6,1.52,MM,1702258211
211,Dudinka,69.4058,86.1778,-16.38,97,100,11.99,RU,1702258211
212,Tyul'gan,52.3405,56.166,-11.56,93,5,4.52,RU,1702258211
213,Holualoa,19.6228,-155.9522,78.64,79,40,5.75,US,1702258212
214,Lensk,60.7253,114.9278,-16.11,93,100,8.75,RU,1702258212
215,Selfoss,63.9331,-20.9971,31.05,85,100,2.89,IS,1702257987
216,Ridder,50.355,83.5133,-6.11,90,67,5.14,KZ,1702258212
217,Solikamsk,59.6196,56.7729,-27.83,100,90,2.19,RU,1702258212
218,Glyn-neath,51.7475,-3.6183,51.82,80,100,19.19,GB,1702258213
219,Qaqortoq,60.7167,-46.0333,13.14,74,10,3.76,GL,1702258213
220,Nova Viçosa,-17.8919,-39.3719,76.12,84,4,5.23,BR,1702258213
221,Junín de los Andes,-39.9504,-71.0694,60.22,66,100,8.12,AR,1702258214
222,Jódar,37.8406,-3.3526,53.46,70,0,0.63,ES,1702258214
223,Bessemer,33.4018,-86.9544,45.68,69,0,9.22,US,1702258214
224,Al Khārijah,25.4514,30.5464,59.88,32,10,4.12,EG,1702258214
225,St. John's,47.5649,-52.7093,30.15,91,0,8.05,CA,1702258200
226,San Vicente de Cañete,-13.0751,-76.3835,67.48,85,100,4.7,PE,1702258215
227,Ust-Tsilma,65.441,52.1498,-7.01,93,100,8.25,RU,1702258215
228,Eraan,9.0629,117.7016,85.57,65,94,4.54,PH,1702258215
229,Sinop Province,41.7711,34.8709,42.84,82,100,7.2,TR,1702257949
230,Nuuk,64.1835,-51.7216,27.21,74,75,3.44,GL,1702258216
231,Lewistown,40.5992,-77.5714,42.21,93,100,0.0,US,1702258216
232,Ha'il,27.5219,41.6907,57.22,47,0,6.91,SA,1702258216
233,Howrah,22.5892,88.3103,60.8,88,0,0.0,IN,1702258217
234,Virginia,37.5481,-77.4467,62.71,95,100,9.22,US,1702258149
235,Ulsteinvik,62.3432,5.8487,37.53,84,9,4.0,NO,1702258217
236,Shakawe,-18.3667,21.85,68.45,88,89,3.91,BW,1702258218
237,Tucupita,9.0622,-62.051,73.04,99,1,3.38,VE,1702258218
238,Usogorsk,63.4106,48.6872,-5.33,93,100,10.09,RU,1702258218
239,Conception Bay South,47.4999,-52.9981,30.43,94,59,8.88,CA,1702258219
240,Teno,-34.8667,-71.1833,63.95,63,55,4.61,CL,1702258219
241,Thal,35.4791,72.2439,29.39,36,15,8.1,PK,1702258219
242,Landerneau,48.4525,-4.2525,54.79,97,100,11.5,FR,1702258219
243,Natal,-5.795,-35.2094,79.45,78,20,8.05,BR,1702258220
244,Palmas,-10.2128,-48.3603,76.87,88,40,5.75,BR,1702258220
245,Atar,20.5169,-13.0499,66.42,27,0,9.66,MR,1702258220
246,El Calafate,-50.3408,-72.2768,48.96,77,55,6.93,AR,1702258221
247,Port Isabel,26.0734,-97.2086,57.02,59,0,0.0,US,1702258221
248,Susuman,62.7833,148.1667,-12.01,99,93,5.01,RU,1702258221
249,Abasha,42.2096,42.2211,44.82,84,33,8.61,GE,1702258222
250,Nemuro,43.3236,145.575,32.77,47,28,11.86,JP,1702258222
251,George Town,5.4112,100.3354,84.13,83,20,5.75,MY,1702258204
252,Fort Bragg,35.139,-79.006,66.04,94,100,6.91,US,1702258223
253,Beiuș,46.6667,22.35,35.98,98,100,3.98,RO,1702258223
254,Otofuke,42.9917,143.2003,32.95,43,6,18.99,JP,1702258224
255,Sovetskaya Gavan',48.9723,140.2878,-6.9,72,2,18.3,RU,1702258224
256,East London,-33.0153,27.9116,61.3,76,99,4.47,ZA,1702258213
257,Yantarnyy,54.8717,19.9381,30.06,96,100,17.18,RU,1702258224
258,Ust'-Ilimsk,58.0006,102.6619,-31.56,100,35,1.01,RU,1702258225
259,Zaozërsk,69.4005,32.4476,4.23,92,77,13.58,RU,1702258066
260,Chinde,26.8418,88.0763,43.11,69,0,2.19,NP,1702258225
261,Walvis Bay,-22.9575,14.5053,62.1,77,58,8.05,NA,1702258226
262,Beni Mellal,32.3373,-6.3498,64.54,36,17,3.11,MA,1702258226
263,Kristiansund,63.1115,7.732,32.65,74,40,5.75,NO,1702258227
264,Argos,37.6333,22.7333,51.78,95,100,2.64,GR,1702258227
265,San Pedro Pochutla,15.7333,-96.4667,76.14,79,6,2.53,MX,1702258071
266,Brookings,44.3114,-96.7984,24.8,88,0,0.0,US,1702258228
267,Oceanside,33.1959,-117.3795,66.27,47,0,4.61,US,1702258157
268,Alenquer,-1.9417,-54.7383,76.37,86,100,1.12,BR,1702258228
269,Badr Ḩunayn,23.7829,38.7905,73.9,62,10,2.04,SA,1702258229
270,Puerto Lempira,15.2667,-83.7667,77.65,92,33,9.46,HN,1702258229
271,Washington,47.5001,-120.5015,36.19,89,100,0.49,US,1702257650
272,Panama City Beach,30.1766,-85.8055,52.09,84,0,12.66,US,1702258230
273,Lagoa,39.05,-27.9833,61.54,73,100,26.13,PT,1702258230
274,Huntsville,34.7304,-86.5861,40.86,75,0,10.36,US,1702257674
275,Humaitá,-7.5061,-63.0208,77.32,89,72,1.07,BR,1702258230
276,Minas de Marcona,-15.2119,-75.1103,60.69,78,86,9.24,PE,1702258231
277,Freetown,8.484,-13.2299,79.41,79,61,4.16,SL,1702258231
278,Taro,-8.3862,115.28,77.0,63,98,2.57,ID,1702258231
279,Murghab,38.1702,73.9667,-1.75,62,7,4.07,TJ,1702258232
280,Suozhen,36.9539,118.1047,30.25,89,100,13.78,CN,1702258232
281,Lagunas,-5.2269,-75.6753,76.5,87,24,3.11,PE,1702258233
282,Türkmenbaşy,40.0222,52.9552,45.37,81,40,16.11,TM,1702258233
283,Uíge,-7.6087,15.0613,68.41,100,100,3.22,AO,1702258233
284,Jamestown,42.097,-79.2353,40.59,90,100,8.05,US,1702257947
285,Palmer,42.1584,-72.3287,60.67,84,100,16.11,US,1702258134
286,Mossamedes,-15.1961,12.1522,71.19,78,88,5.91,AO,1702258234
287,San Miguel de Cozumel,20.5083,-86.9458,72.95,94,100,11.99,MX,1702257712
288,Beira,-19.8436,34.8389,81.41,87,95,10.04,MZ,1702258235
289,Pavlovka,52.6897,47.1405,-1.35,93,100,6.55,RU,1702258235
290,Winkler,49.1817,-97.941,15.98,92,69,4.61,CA,1702258122
291,Mili,6.0815,171.735,81.41,84,100,17.36,MH,1702258235
292,Petropavlovsk-Kamchatskiy,53.0452,158.6483,34.39,95,75,15.01,RU,1702258236
293,Pleshchenitsy,54.4222,27.8331,28.17,94,100,11.7,BY,1702258236
294,Balabac,7.9868,117.0645,83.61,76,97,14.27,PH,1702258208
295,Vila Velha,-20.3297,-40.2925,75.94,82,75,3.0,BR,1702258054
296,Saint-Félicien,48.6501,-72.4491,38.08,87,75,2.3,CA,1702258237
297,Buryn',51.1991,33.8352,29.25,97,100,10.29,UA,1702258237
298,Obsharovka,53.125,48.8531,-9.81,96,17,4.99,RU,1702258237
299,La Paz,-16.5,-68.15,54.57,74,75,2.3,BO,1702258140
300,Maamba,-17.3667,27.15,72.39,76,87,7.43,ZM,1702258238
301,Halifax,44.6453,-63.5724,44.49,97,100,1.99,CA,1702258066
302,Mermoz Boabab,14.7065,-17.4758,73.96,72,100,16.11,SN,1702258238
303,Raḩīmah,26.7079,50.0619,59.22,55,100,8.7,SA,1702258238
304,Karaton,-6.3424,106.1045,84.69,67,50,3.09,ID,1702258239
305,Aral,40.5156,81.2636,25.07,53,43,7.52,CN,1702258239
306,Nāgar Karnūl,16.4821,78.3247,66.29,69,12,5.21,IN,1702258239
307,Kaduqli,11.0167,29.7167,73.87,21,100,7.61,SD,1702258240
308,Cuyo,10.8525,121.0086,81.9,78,97,19.8,PH,1702258240
309,Pico Truncado,-46.7949,-67.9573,63.05,43,100,26.78,AR,1702258240
310,Altai,46.3722,96.2583,4.93,73,56,6.67,MN,1702258240
311,Panguipulli,-39.6333,-72.3333,55.49,83,100,0.69,CL,1702258241
312,Pedernales,18.0384,-71.744,79.21,71,4,7.0,DO,1702258241
313,Toledo,39.8333,-4.0,48.13,93,20,2.84,ES,1702258233
314,Meulaboh,4.1363,96.1285,79.0,85,52,2.75,ID,1702258241
315,Shimo-furano,43.35,142.3833,25.2,82,100,10.27,JP,1702258242
316,Yuzhno-Kurilsk,44.0306,145.8556,33.37,76,93,18.01,RU,1702258242
317,Neftekumsk,44.6667,44.9167,33.31,87,100,10.07,RU,1702258242
318,San Julián,21.0167,-102.1667,60.48,54,100,6.17,MX,1702258243
319,Laguna,38.421,-121.4238,54.05,67,0,4.61,US,1702258095
320,Crane,31.3974,-102.3501,48.13,23,0,4.61,US,1702258243
321,Finisterra,42.9049,-9.2629,64.74,86,100,22.66,ES,1702258243
322,Pokaran,26.9167,71.9167,61.66,24,0,3.56,IN,1702258243
323,Ormara,25.2088,64.6357,71.89,32,8,5.66,PK,1702258244
324,Serres,41.0856,23.5497,45.37,91,92,2.55,GR,1702258244
325,Kandi,11.1342,2.9386,69.22,17,81,5.23,BJ,1702258244
326,Kendari,-3.945,122.4989,87.08,63,100,2.17,ID,1702258244
327,Carbonear,47.7332,-53.2148,31.14,90,88,8.93,CA,1702258244
328,Nīlokheri,29.8333,76.9167,52.03,32,30,1.3,IN,1702258245
329,Tumut,-35.3,148.2167,88.61,44,97,5.66,AU,1702258245
330,Lüderitz,-26.6481,15.1594,62.29,69,0,18.68,NA,1702258013
331,Mukalla,14.5425,49.1242,72.16,59,4,4.88,YE,1702258245
332,Ta`ū,-14.2336,-169.5144,77.02,92,100,17.65,AS,1702258062
333,Larne,54.85,-5.8167,44.62,98,97,2.51,GB,1702258246
334,Loango,-4.6719,11.8312,82.06,78,75,4.61,CG,1702258246
335,Prince Rupert,54.3161,-130.3201,42.49,86,0,14.97,CA,1702258108
336,Kourou,5.1552,-52.6478,78.85,90,73,6.17,GF,1702258246
337,Hinton,53.4001,-117.5857,29.41,92,100,4.14,CA,1702258246
338,Tsiombe,-25.3,45.4833,74.5,86,95,2.55,MG,1702258246
339,Tibati,6.4667,12.6333,68.94,31,93,4.14,CM,1702258246
340,Jalor,25.35,72.6167,60.17,37,0,2.46,IN,1702258247
341,Dalai,45.5,124.3,-2.85,75,94,5.06,CN,1702257975
342,Cooma,-36.2333,149.1333,78.75,51,100,8.97,AU,1702258094
343,Okeechobee,27.2439,-80.8298,73.99,85,75,18.41,US,1702258247
344,Scarborough,54.2797,-0.4044,46.65,93,100,13.53,GB,1702258247
345,Severo-Yeniseyskiy,60.3725,93.0408,-37.43,100,100,1.01,RU,1702258247
346,Tofol,5.3248,163.0078,83.98,79,75,6.91,FM,1702258247
347,Esim,4.8699,-2.2405,79.14,85,12,5.35,GH,1702258248
348,Togur,58.3631,82.8265,-24.86,99,8,5.01,RU,1702258248
349,Aykhal,66.0,111.5,-16.67,98,100,5.39,RU,1702258248
350,Saarijärvi,62.7049,25.254,12.36,98,92,3.27,FI,1702258248
351,Cuddalore,11.75,79.75,78.21,82,64,9.73,IN,1702258248
352,Salinópolis,-0.6136,-47.3561,80.65,79,54,11.81,BR,1702258248
353,Lázaro Cárdenas,17.9583,-102.2,79.61,70,100,0.83,MX,1702257961
354,Prien am Chiemsee,47.8667,12.3333,42.39,88,100,5.19,DE,1702258249
355,Egilsstadir,65.2653,-14.3948,21.11,93,100,2.3,IS,1702258249
356,São José da Coroa Grande,-8.8978,-35.1478,77.81,79,2,7.23,BR,1702258250
357,Tura,25.5198,90.2201,62.47,61,0,1.99,IN,1702258250
358,Cidreira,-30.1811,-50.2056,68.07,92,100,17.52,BR,1702258250
359,Kerikeri,-35.2268,173.9474,69.17,59,100,4.9,NZ,1702258250
360,Bel Ombre,-4.6167,55.4167,80.44,89,40,3.44,SC,1702258250
361,Zuwārah,32.9312,12.082,60.15,61,0,14.32,LY,1702258250
362,Zouérat,22.7187,-12.4521,64.24,21,0,11.34,MR,1702258251
363,Ciudad Acuña,29.3232,-100.9522,53.89,26,0,3.44,MX,1702257960
364,Taoudenni,22.6783,-3.9836,63.39,29,100,16.22,ML,1702258251
365,El Porvenir,13.7617,-87.3458,79.93,69,78,6.51,HN,1702258251
366,Balaklava,44.5,33.6,42.39,77,100,0.67,UA,1702258251
367,Beloyarskiy,63.7119,66.6722,-31.0,100,45,3.0,RU,1702258252
368,Kupang,-10.1667,123.5833,86.58,79,40,5.75,ID,1702258252
369,Åkrehamn,59.2667,5.1833,41.0,48,100,13.8,NO,1702258252
370,Venado Tuerto,-33.7456,-61.9688,68.02,40,0,8.3,AR,1702258252
371,Gavrilov Posad,56.5597,40.1175,13.44,94,100,12.24,RU,1702258253
372,Arraial do Cabo,-22.9661,-42.0278,73.4,80,100,10.94,BR,1702258253
373,San Antonio de Palé,-1.4014,5.6325,81.25,79,97,13.38,GQ,1702258254
374,Cockburn Town,21.4612,-71.1419,78.76,69,40,14.97,TC,1702258254
375,Greenville,35.6127,-77.3663,64.56,98,100,10.36,US,1702258001
376,Usinsk,65.9939,57.5281,-19.93,100,100,1.01,RU,1702258254
377,Kavaratti,10.5669,72.642,83.48,72,100,6.98,IN,1702258228
378,Preobrazheniye,42.9019,133.9064,16.34,38,100,4.68,RU,1702258255
379,Garissa,-0.4536,39.6401,77.99,79,25,7.09,KE,1702258255
380,Dryden,49.7833,-92.7503,21.49,86,100,5.75,CA,1702258255
381,Majenang,-7.2975,108.7642,83.17,73,91,4.85,ID,1702258255
382,Maués,-3.3836,-57.7186,77.5,91,96,2.53,BR,1702258256
383,Harper,4.375,-7.7169,79.43,83,13,4.88,LR,1702258256
384,Zhanjiang,21.2815,110.3427,79.93,67,0,9.19,CN,1702258256
385,Bardai,11.65,7.2333,61.12,29,0,10.65,NG,1702258256
386,Åmål,59.051,12.7049,33.21,98,100,17.83,SE,1702258257
387,Udangudi,8.4333,78.0167,77.18,91,100,10.65,IN,1702258258
388,Chifeng,42.2683,118.9636,10.29,64,100,5.64,CN,1702258258
389,Waddān,29.1614,16.139,54.95,77,30,14.88,LY,1702258258
390,São João da Barra,-21.6403,-41.0511,73.54,80,78,5.75,BR,1702258258
391,Kharkhorin,47.1975,102.8238,-10.43,98,68,0.65,MN,1702258259
392,Constitución,-35.3333,-72.4167,54.23,92,87,5.03,CL,1702258256
393,Xique Xique,-10.8217,-42.7311,80.31,52,44,16.04,BR,1702258259
394,Kalmunai,7.4167,81.8167,78.58,85,93,4.38,LK,1702258260
395,City of San Pedro,14.35,121.0167,87.31,72,20,8.01,PH,1702258260
396,Arkhangelsk,64.5401,40.5433,3.31,77,75,13.42,RU,1702258129
397,Vadsø,70.0744,29.7487,12.36,92,100,23.02,NO,1702257994
398,Acaraú,-2.8856,-40.12,80.19,76,100,15.59,BR,1702258107
399,Launceston,-41.45,147.1667,79.16,29,95,4.61,AU,1702258261
400,Komsomol'skiy,43.9783,46.6985,37.02,79,99,7.05,RU,1702258262
401,Port Moresby,-9.4431,147.1797,90.82,55,40,11.5,PG,1702258262
402,Empalme,27.9667,-110.8167,77.05,41,0,5.75,MX,1702258262
403,Palikir,6.9248,158.1611,88.65,70,100,11.5,FM,1702258103
404,Sungai Penuh,-2.0833,101.3833,73.29,83,64,2.17,ID,1702258263
405,Paracuru,-3.41,-39.0306,82.11,74,62,11.81,BR,1702258263
406,Nelson Bay,-32.7167,152.15,86.09,67,14,8.99,AU,1702258266
407,Codrington,-38.2667,141.9667,64.42,76,100,15.7,AU,1702258267
408,Khorixas,-20.3667,14.9667,64.29,44,6,1.66,NA,1702258267
409,Njombe,-9.3333,34.7667,60.03,97,100,4.85,TZ,1702258268
410,Greymouth,-42.4667,171.2,58.51,60,6,11.99,NZ,1702258268
411,Wajir,1.7471,40.0573,77.63,78,8,10.16,KE,1702258268
412,Bekalta,35.6174,10.9947,57.22,73,0,14.34,TN,1702258268
413,Chaman,30.9236,66.4512,44.96,33,0,3.85,PK,1702258268
414,San Matías,-16.3667,-58.4,75.88,86,93,2.59,BO,1702258269
415,Yaren,-0.5472,166.916,83.77,71,54,1.97,NR,1702258269
416,Chiredzi,-21.05,31.6667,71.44,92,100,6.4,ZW,1702258269
417,San Carlos,9.6612,-68.5827,77.29,72,53,2.35,VE,1702258269
418,Gao,16.6362,1.637,65.98,20,100,18.07,ML,1702258270
419,La Passe,45.5549,-0.8967,61.03,83,100,24.79,FR,1702258270
420,Borogontsy,62.6683,131.1683,-23.44,94,100,7.29,RU,1702258270
421,Igarka,67.4667,86.5833,-21.26,98,100,6.04,RU,1702258270
422,Altay,47.8667,88.1167,5.92,67,100,6.87,CN,1702258088
423,Gereida,11.2811,25.1414,73.67,18,100,7.31,SD,1702258271
424,Mount Pearl,47.5166,-52.7813,29.32,91,0,8.05,CA,1702258159
425,Manaure,11.7751,-72.4445,81.03,75,6,19.48,CO,1702258271
426,Ciudad Madero,22.2667,-97.8333,65.05,45,100,12.28,MX,1702258272
427,Villanueva,15.3167,-88.0,78.04,89,20,4.61,HN,1702258272
428,Aasiaat,68.7098,-52.8699,26.17,89,100,12.97,GL,1702258272
429,Keuruu,62.2667,24.7,15.98,97,93,4.5,FI,1702258135
430,Namdrik,5.5994,168.1028,82.24,81,15,13.15,MH,1702258273
431,Levice,48.2156,18.6071,36.5,100,100,5.44,SK,1702258254
432,Naze,28.3667,129.4833,74.32,82,44,15.59,JP,1702258273
433,Papao,-17.75,-149.55,87.48,83,41,27.72,PF,1702257974
434,Sanibel,26.449,-82.0223,69.06,94,100,1.01,US,1702258002
435,Cadale,2.7603,46.3222,80.04,80,33,11.74,SO,1702258274
436,Praia da Vitória,38.7333,-27.0667,63.75,77,20,13.47,PT,1702258274
437,Bolgar,54.95,49.0667,-9.71,91,50,6.04,RU,1702258274
438,Caceres,39.522,-6.3748,50.52,95,0,2.55,ES,1702258274
439,Santa Rita,-7.1139,-34.9781,79.47,83,40,3.44,BR,1702258274
440,Bambanglipuro,-7.95,110.2833,83.3,66,98,7.56,ID,1702258275
441,Pelaya,8.6882,-73.6645,80.22,75,100,3.0,CO,1702258275
442,Paita,-5.0892,-81.1144,70.61,79,3,14.52,PE,1702258275
443,Hobyo,5.3505,48.5268,80.37,75,95,19.22,SO,1702258275
444,Boali,4.8005,18.1275,74.89,48,100,1.92,CF,1702258276
445,Fortuna,40.5982,-124.1573,55.98,83,100,0.0,US,1702258276
446,Kidal,18.4411,1.4078,64.62,19,17,15.84,ML,1702258276
447,Lebu,-37.6167,-73.65,55.09,87,100,16.91,CL,1702258276
448,Lata,40.1629,-8.3327,59.07,92,67,4.29,PT,1702258277
449,New Norfolk,-42.7826,147.0587,72.72,23,13,3.2,AU,1702258277
450,Hutchinson,38.0608,-97.9298,38.03,59,0,9.22,US,1702258038
451,Tocopilla,-22.092,-70.1979,67.6,65,3,2.64,CL,1702258277
452,Kudahuvadhoo,2.6708,72.8944,82.87,74,95,7.99,MV,1702258278
453,Chayan,43.0297,69.3772,27.21,73,100,5.86,KZ,1702258278
454,Kearney,40.6995,-99.0815,34.36,52,0,4.61,US,1702258278
455,Broken Hill,-31.95,141.4333,94.08,24,99,18.39,AU,1702258277
456,Krasnomayskiy,57.6194,34.4099,15.06,94,100,7.65,RU,1702258279
457,Galliano,29.4422,-90.2992,55.4,62,0,8.21,US,1702258279
458,Banfora,10.6333,-4.7667,73.42,14,80,5.1,BF,1702258279
459,Dwārka,22.2394,68.9678,71.55,49,5,5.97,IN,1702258280
460,Proletariy,58.4342,31.7046,14.13,94,100,7.02,RU,1702258280
461,Ina,35.8276,137.9538,46.74,53,12,1.57,JP,1702258281
462,Gualaceo,-2.9,-78.7833,64.06,97,98,3.33,EC,1702258281
463,Bahía de Kino,28.8333,-111.9333,65.71,53,0,16.22,MX,1702258281
464,São Vicente,-23.9631,-46.3919,74.26,26,100,3.49,BR,1702258281
465,Msanga,-6.05,36.0333,67.98,90,61,5.7,TZ,1702258282
466,Xilin Hot,43.9667,116.0333,2.46,78,100,7.54,CN,1702258036
467,Brzeszcze,49.982,19.1516,39.34,93,98,6.38,PL,1702258282
468,Kruisfontein,-34.0033,24.7314,56.88,92,0,3.83,ZA,1702258282
469,Lubang,13.8584,120.124,81.39,79,36,17.74,PH,1702258283
470,Třeboň,49.0036,14.7707,42.62,81,100,7.38,CZ,1702258283
471,Shūshtar,32.0455,48.8567,65.68,44,100,3.69,IR,1702258283
472,Ekibastuz,51.6667,75.3667,-10.73,98,99,6.31,KZ,1702258284
473,Kailua-Kona,19.6406,-155.9956,82.36,79,40,5.75,US,1702258087
474,Zeya,53.75,127.2667,-14.51,76,3,5.97,RU,1702258284
475,Pechora,65.1472,57.2244,-21.14,100,100,1.99,RU,1702258285
476,Ingeniero Guillermo N. Juárez,-23.9,-61.85,71.64,60,32,4.5,AR,1702258285
477,Ryōtsu-minato,38.0833,138.4333,46.31,65,78,11.56,JP,1702258285
478,Geraldton,-28.7667,114.6,86.41,12,0,25.32,AU,1702258286
479,Iquitos,-3.7481,-73.2472,77.04,88,0,2.3,PE,1702258286
480,Bryne,58.7354,5.6477,40.57,63,100,2.3,NO,1702258286
481,Harar,9.3094,42.1258,54.93,51,5,4.5,ET,1702258286
482,Koné,-21.0595,164.8658,87.69,40,100,6.15,NC,1702258287
483,Panitian,9.0965,118.0864,84.09,71,95,7.02,PH,1702258287
484,East Ballina,-28.8667,153.5833,82.8,57,45,9.6,AU,1702258287
485,Elverum,60.8819,11.5623,22.33,97,100,3.96,NO,1702258288
486,Brisas de Zicatela,15.8369,-97.0419,81.12,61,0,3.44,MX,1702258209
487,Andújar,38.0392,-4.0508,60.57,84,0,2.24,ES,1702258288
488,Mandalgovi,45.7625,106.2708,3.27,93,100,6.62,MN,1702258289
489,Queenstown,-31.8976,26.8753,52.41,91,100,2.3,ZA,1702258289
490,Roquetas de Mar,36.7642,-2.6148,53.6,63,4,6.22,ES,1702258289
491,Kenora,49.8167,-94.4337,20.37,93,100,6.91,CA,1702258290
492,Sanctuary Point,-35.1114,150.629,80.98,64,94,8.01,AU,1702258290
493,Yung Shue Wan,22.2333,114.1167,76.75,85,64,1.99,HK,1702258290
494,Ankazoabo,-22.2833,44.5167,75.25,72,21,5.14,MG,1702258291
495,Nadym,65.5333,72.5167,-24.38,93,89,9.35,RU,1702258291
496,Coquimbo,-29.9533,-71.3436,60.53,77,0,3.44,CL,1702258291
497,Leamington,42.0549,-82.6062,38.88,76,96,5.99,CA,1702258292
498,Dongola,19.1667,30.4833,68.0,22,86,7.38,SD,1702258292
499,Xinpu,34.5997,119.1594,34.05,96,100,12.53,CN,1702258292
500,Truth or Consequences,33.1284,-107.2528,46.63,19,0,3.44,US,1702258293
501,Ruteng,-8.6136,120.4721,75.25,69,93,3.49,ID,1702258293
502,Saint-François,46.4154,3.9054,58.44,84,100,9.22,FR,1702258293
503,Hasaki,35.7333,140.8333,63.28,65,83,2.48,JP,1702258209
504,Dunedin,-45.8742,170.5036,62.51,58,33,7.45,NZ,1702258294
505,Nyurba,63.2842,118.3319,-19.61,98,100,5.73,RU,1702258009
506,Belmonte,-15.8631,-38.8828,76.3,86,0,6.17,BR,1702258294
507,Tinogasta,-28.0632,-67.5649,74.46,52,28,2.13,AR,1702258294
508,Levuka,50.1834,-105.4011,22.82,76,12,6.93,CA,1702258295
509,Sinabang,2.4803,96.3801,79.12,84,100,3.44,ID,1702258295
510,Magadan,59.5667,150.8,27.54,88,100,18.79,RU,1702258295
511,Maceió,-9.6658,-35.7353,74.64,100,0,2.3,BR,1702258296
512,Alma,48.5501,-71.6491,38.41,92,98,4.25,CA,1702258220
513,Isangel,-19.55,169.2667,84.31,58,75,8.05,VU,1702258100
514,Weining,26.85,104.2333,46.54,80,35,1.95,CN,1702258296
515,Reçani,31.2846,-4.2688,57.36,49,0,2.8,MA,1702258297
516,Kolondiéba,11.0882,-6.8926,71.24,16,100,4.61,ML,1702258297
517,Bulle,46.6195,7.0567,48.85,75,100,8.01,CH,1702258297
518,Yilan,24.757,121.753,80.46,67,0,3.74,TW,1702258297
519,Yermentau,51.6214,73.1069,-13.27,91,100,9.6,KZ,1702258298
520,Khanty-Mansiysk,61.0042,69.0019,-41.69,60,20,2.24,RU,1702258298
521,Kiunga,-6.1219,141.2906,87.08,62,95,2.8,PG,1702258298
522,Rudnichnyy,59.617,52.4703,-17.27,98,100,4.63,RU,1702258299
523,Bandarbeyla,9.4942,50.8122,76.96,73,17,20.94,SO,1702258299
524,Villa Gesell,-37.2639,-56.973,66.06,86,0,10.02,AR,1702258299
525,Craig,40.5153,-107.5464,24.75,86,100,9.22,US,1702258299
526,Kayenta,36.7278,-110.2546,33.21,34,90,1.92,US,1702258300
527,Sorong,-0.8833,131.25,83.7,71,82,4.92,ID,1702258300
528,Saint Augustine Beach,29.8505,-81.2654,69.1,94,75,10.36,US,1702258300
529,Tibro,58.4245,14.1616,33.53,95,100,4.0,SE,1702258301
530,Pangai,-19.8,-174.35,84.31,61,40,8.05,TO,1702258301
531,Esil,51.9556,66.4042,-26.1,97,80,10.18,KZ,1702258301
532,Benalla,-36.55,145.9833,86.86,64,100,8.01,AU,1702258301
533,Rumbek,6.802,29.6912,77.81,31,32,3.04,SS,1702258301
534,Sarangani,5.4033,125.4636,82.38,76,68,12.01,PH,1702258302
535,Kingston,17.997,-76.7936,83.35,76,20,17.27,JM,1702258014
536,Ambovombe,-25.1667,46.0833,74.55,85,65,2.35,MG,1702258302
537,Kizil-Arvat,38.9764,56.2757,52.3,65,100,3.71,TM,1702258302
538,Rome,43.2128,-75.4557,40.95,95,100,4.61,US,1702258214
539,Bodaybo,57.8506,114.1933,-20.87,97,100,0.2,RU,1702258302
540,Douarnenez,48.0954,-4.329,56.21,94,75,6.91,FR,1702258303
541,Kattivākkam,13.2167,80.3167,77.09,76,79,10.45,IN,1702258303
542,Diu,20.7141,70.9822,69.3,53,7,8.52,IN,1702258303
543,Khandyga,62.6667,135.6,-27.83,97,100,1.61,RU,1702258166
544,Mutuáli,-14.8706,37.0044,73.22,78,96,4.63,MZ,1702258303
545,Shache,38.4167,77.2406,28.04,54,92,0.85,CN,1702258304
546,Valdivia,-39.8142,-73.2459,59.09,81,100,1.54,CL,1702258058
547,Gornopravdinsk,60.05,69.9,-24.48,96,7,3.6,RU,1702258304
548,Bat Khela,34.6167,71.9714,48.94,22,73,5.59,PK,1702258304
549,Pader Palwo,2.8006,33.135,70.12,77,95,2.28,UG,1702258304
550,Swan Hill,-35.3378,143.5544,99.95,16,90,16.04,AU,1702258304
551,Al Fqih Ben Çalah,32.5009,-6.6906,63.1,41,40,3.33,MA,1702258304
